place_name,count,description,uri,latitude,longitude
Rome,6,The capital of the Roman Republic and Empire.,https://pleiades.stoa.org/places/423025,41.891775,12.486137
Pontus,2,A region of northeastern Anatolia consisting of the southeastern coast of the Black Sea and the surrounding inland region. ,https://pleiades.stoa.org/places/857287,43.0786852,34.7425505
Siwas,1,"An ancient place, cited: BAtlas 64 E1 Sebasteia/Megalopolis?/Talaura?",https://pleiades.stoa.org/places/629075,39.7490195,37.01660699999999
Trebizond,1,An ancient settlement of Asia Minor on the south coast of the Black Sea. Modern Trabzon in Turkey.,https://pleiades.stoa.org/places/857359,41.0042695,39.7233115
Nicomedia,1,Nicomedia was founded in 712/11 BC as a Megarian colony named Astacus and was rebuilt by Nicomedes I of Bithynia in 264 BC. The city was an important administrative center of the Roman Empire.,https://pleiades.stoa.org/places/511337,40.7651905,29.919887000000003
Ancyra,1,"An ancient place, cited: BAtlas 63 B1 Ancyra",https://pleiades.stoa.org/places/619103,39.9437925,32.859333
Constantinople,2,"Capital city of the Eastern Roman Empire, the Latin, and the Ottoman Empires founded by Constantine I in AD 330.",https://pleiades.stoa.org/places/520998,41.00637141163484,28.96535173623981
Melitene,1,Melitene was an ancient city on the Tohma River. It was the station of Legio XII Fulminata from AD 70 onwards.,https://pleiades.stoa.org/places/629040,38.382217,38.361152
Macedonia,1,"The region of ancient Macedonia in the Balkan peninsula. The boundaries of the region have shifted significantly over time, and remain controversial.",https://pleiades.stoa.org/places/491656,41.25,21.75
Epirus,1,An ancient region that included northwest parts of modern Greece and the southern tip of modern Albania.,https://pleiades.stoa.org/places/530871,39.54648401662415,20.78770214112808
Sicily,1,"Sicily is the largest island in the Mediterranean Sea and has been the site of human habitation since ca. 8,000 BC. In historical terms Sicily has seen important settlement activity connected to numerous culture groups - Punic, Carthaginian, Greek, Roman, Vandalic, Ostrogothic, Byzantine, Arabic, and Norman.",https://pleiades.stoa.org/places/462492,37.64329684051015,13.932017688866832
Milan,1,"A Celtic settlement and crossroads, later a Western Roman capital. Now modern Milan, Italy.",https://pleiades.stoa.org/places/383706,45.463746,9.18806
